{
  "type": "FeatureCollection",
  "aveCoords": [
    0.42244,
    50.29
  ],
  "features": [
    {
      "type": "Feature",
      "geometry": {
        "coordinates": [
          26.750612,
          45.24233
        ],
        "type": "Point"
      },
      "properties": {
        "ID": "thirty seconds to mars_event_0001",
        "title": "Thirty Seconds to Mars live at Napoca, Romania",
        "description": "",
        "date": "21-07-2019",
        "eventAddress": "Napoca, Romania"
      }
    },
    {
      "type": "Feature",
      "geometry": {
        "coordinates": [
          25.471447,
          65.01265
        ],
        "type": "Point"
      },
      "properties": {
        "ID": "thirty seconds to mars_event_0002",
        "title": "Thirty Seconds to Mars live at Oulu, Finland",
        "description": "",
        "date": "27-07-2019",
        "eventAddress": "Oulu, Finland"
      }
    },
    {
      "type": "Feature",
      "geometry": {
        "coordinates": [
          10.822705,
          53.655735
        ],
        "type": "Point"
      },
      "properties": {
        "ID": "thirty seconds to mars_event_0003",
        "title": "Thirty Seconds to Mars live at Salem, Germany",
        "description": "",
        "date": "16-08-2019",
        "eventAddress": "Salem, Germany"
      }
    },
    {
      "type": "Feature",
      "geometry": {
        "coordinates": [
          -0.083132,
          39.889915
        ],
        "type": "Point"
      },
      "properties": {
        "ID": "thirty seconds to mars_event_0004",
        "title": "Thirty Seconds to Mars live at Burriana, Spain",
        "description": "",
        "date": "03-08-2019",
        "eventAddress": "Burriana, Spain"
      }
    },
    {
      "type": "Feature",
      "geometry": {
        "coordinates": [
          12.375101,
          51.34083
        ],
        "type": "Point"
      },
      "properties": {
        "ID": "thirty seconds to mars_event_0005",
        "title": "Thirty Seconds to Mars live at Leipzig, Germany",
        "description": "",
        "date": "17-08-2019",
        "eventAddress": "Leipzig, Germany"
      }
    },
    {
      "type": "Feature",
      "geometry": {
        "coordinates": [
          6.4359585,
          51.1945251
        ],
        "type": "Point"
      },
      "properties": {
        "ID": "thirty seconds to mars_event_0006",
        "title": "Thirty Seconds to Mars live at Monchengladbach, Germany",
        "description": "",
        "date": "15-08-2019",
        "eventAddress": "Monchengladbach, Germany"
      }
    },
    {
      "type": "Feature",
      "geometry": {
        "coordinates": [
          -119.699375153073,
          37.0743595873945
        ],
        "type": "Point"
      },
      "properties": {
        "ID": "thirty seconds to mars_event_0007",
        "title": "Thirty Seconds to Mars live at California, USA",
        "description": "",
        "date": "08-09-2019, 07-09-2019",
        "eventAddress": "California, USA"
      }
    },
    {
      "type": "Feature",
      "geometry": {
        "coordinates": [
          9.929786,
          56.03527
        ],
        "type": "Point"
      },
      "properties": {
        "ID": "thirty seconds to mars_event_0008",
        "title": "Thirty Seconds to Mars live at Skanderborg, Denmark",
        "description": "",
        "date": "08-08-2019",
        "eventAddress": "Skanderborg, Denmark"
      }
    },
    {
      "type": "Feature",
      "geometry": {
        "coordinates": [
          19.0403594,
          47.4979937
        ],
        "type": "Point"
      },
      "properties": {
        "ID": "thirty seconds to mars_event_0009",
        "title": "Thirty Seconds to Mars live at Budapest, Hungary",
        "description": "",
        "date": "23-07-2019",
        "eventAddress": "Budapest, Hungary"
      }
    },
    {
      "type": "Feature",
      "geometry": {
        "coordinates": [
          8.703326,
          53.86844
        ],
        "type": "Point"
      },
      "properties": {
        "ID": "thirty seconds to mars_event_0010",
        "title": "Thirty Seconds to Mars live at Cuxhaven, Germany",
        "description": "",
        "date": "19-07-2019",
        "eventAddress": "Cuxhaven, Germany"
      }
    },
    {
      "type": "Feature",
      "geometry": {
        "coordinates": [
          4.9,
          52.378
        ],
        "type": "Point"
      },
      "properties": {
        "ID": "thirty seconds to mars_event_0011",
        "title": "Thirty Seconds to Mars live at Amsterdam, Netherlands",
        "description": "",
        "date": "06-08-2019",
        "eventAddress": "Amsterdam, Netherlands"
      }
    }
  ]
}