{
  "type": "FeatureCollection",
  "features": [
    {
      "type": "Feature",
      "properties": {
        "artist": "Thirty Seconds to Mars",
        "date_1": "27-07-2019",
        "title": "Oulu, Finland"
      },
      "geometry": {
        "coordinates": [
          25.471447,
          65.012653
        ],
        "type": "Point"
      }
    },
    {
      "type": "Feature",
      "properties": {
        "artist": "Thirty Seconds to Mars",
        "date_1": "19-07-2019",
        "title": "Cuxhaven, Germany"
      },
      "geometry": {
        "coordinates": [
          8.703326,
          53.868437
        ],
        "type": "Point"
      }
    },
    {
      "type": "Feature",
      "properties": {
        "artist": "Thirty Seconds to Mars",
        "date_1": "21-07-2019",
        "title": "Napoca, Romania"
      },
      "geometry": {
        "coordinates": [
          26.750613,
          45.242328
        ],
        "type": "Point"
      }
    },
    {
      "type": "Feature",
      "properties": {
        "artist": "Thirty Seconds to Mars",
        "date_1": "16-08-2019",
        "title": "Salem, Germany"
      },
      "geometry": {
        "coordinates": [
          10.822705,
          53.655736
        ],
        "type": "Point"
      }
    },
    {
      "type": "Feature",
      "properties": {
        "artist": "Thirty Seconds to Mars",
        "date_1": "06-08-2019",
        "title": "Amsterdam, Netherlands"
      },
      "geometry": {
        "coordinates": [
          4.9,
          52.378
        ],
        "type": "Point"
      }
    },
    {
      "type": "Feature",
      "properties": {
        "artist": "Thirty Seconds to Mars",
        "date_1": "15-08-2019",
        "title": "Monchengladbach, Germany"
      },
      "geometry": {
        "coordinates": [
          6.4359585,
          51.1945251
        ],
        "type": "Point"
      }
    },
    {
      "type": "Feature",
      "properties": {
        "artist": "Thirty Seconds to Mars",
        "date_1": "03-08-2019",
        "title": "Burriana, Spain"
      },
      "geometry": {
        "coordinates": [
          -0.083132,
          39.889914
        ],
        "type": "Point"
      }
    },
    {
      "type": "Feature",
      "properties": {
        "artist": "Thirty Seconds to Mars",
        "date_1": "08-09-2019",
        "date_2": "07-09-2019",
        "title": "California, USA"
      },
      "geometry": {
        "coordinates": [
          -119.699375153073,
          37.0743595873945
        ],
        "type": "Point"
      }
    },
    {
      "type": "Feature",
      "properties": {
        "artist": "Thirty Seconds to Mars",
        "date_1": "17-08-2019",
        "title": "Leipzig, Germany"
      },
      "geometry": {
        "coordinates": [
          12.375101,
          51.340832
        ],
        "type": "Point"
      }
    },
    {
      "type": "Feature",
      "properties": {
        "artist": "Thirty Seconds to Mars",
        "date_1": "23-07-2019",
        "title": "Budapest, Hungary"
      },
      "geometry": {
        "coordinates": [
          19.0403594,
          47.4979937
        ],
        "type": "Point"
      }
    },
    {
      "type": "Feature",
      "properties": {
        "artist": "Thirty Seconds to Mars",
        "date_1": "08-08-2019",
        "title": "Skanderborg, Denmark"
      },
      "geometry": {
        "coordinates": [
          9.929786,
          56.03527
        ],
        "type": "Point"
      }
    }
  ]
}