{
  "type": "FeatureCollection",
  "aveCoords": [
    12.8187,
    50.66292
  ],
  "features": [
    {
      "type": "Feature",
      "geometry": {
        "coordinates": [
          13.3888599,
          52.5170365
        ],
        "type": "Point"
      },
      "properties": {
        "ID": "nickelback_event_0001",
        "title": "Nickelback live at Berlin, Germany",
        "description": "",
        "date": "25-06-2020",
        "eventAddress": "Berlin, Germany"
      }
    },
    {
      "type": "Feature",
      "geometry": {
        "coordinates": [
          18.071766,
          59.324333
        ],
        "type": "Point"
      },
      "properties": {
        "ID": "nickelback_event_0002",
        "title": "Nickelback live at Stockholm, Sweden",
        "description": "",
        "date": "29-06-2020",
        "eventAddress": "Stockholm, Sweden"
      }
    },
    {
      "type": "Feature",
      "geometry": {
        "coordinates": [
          12.5697339,
          55.6753132
        ],
        "type": "Point"
      },
      "properties": {
        "ID": "nickelback_event_0003",
        "title": "Nickelback live at Copenhagen, Denmark",
        "description": "",
        "date": "02-07-2020",
        "eventAddress": "Copenhagen, Denmark"
      }
    },
    {
      "type": "Feature",
      "geometry": {
        "coordinates": [
          -0.127647,
          51.5073
        ],
        "type": "Point"
      },
      "properties": {
        "ID": "nickelback_event_0004",
        "title": "Nickelback live at London, UK",
        "description": "",
        "date": "10-07-2020",
        "eventAddress": "London, UK"
      }
    },
    {
      "type": "Feature",
      "geometry": {
        "coordinates": [
          8.541096,
          47.369733
        ],
        "type": "Point"
      },
      "properties": {
        "ID": "nickelback_event_0005",
        "title": "Nickelback live at Zurich, Switzerland",
        "description": "",
        "date": "17-07-2020",
        "eventAddress": "Zurich, Switzerland"
      }
    },
    {
      "type": "Feature",
      "geometry": {
        "coordinates": [
          19.0403594,
          47.4979937
        ],
        "type": "Point"
      },
      "properties": {
        "ID": "nickelback_event_0006",
        "title": "Nickelback live at Budapest, Hungary",
        "description": "",
        "date": "15-07-2020",
        "eventAddress": "Budapest, Hungary"
      }
    },
    {
      "type": "Feature",
      "geometry": {
        "coordinates": [
          8.678239,
          50.113396
        ],
        "type": "Point"
      },
      "properties": {
        "ID": "nickelback_event_0007",
        "title": "Nickelback live at Frankfurt, Germany",
        "description": "",
        "date": "23-06-2020",
        "eventAddress": "Frankfurt, Germany"
      }
    },
    {
      "type": "Feature",
      "geometry": {
        "coordinates": [
          11.714131,
          44.353405
        ],
        "type": "Point"
      },
      "properties": {
        "ID": "nickelback_event_0008",
        "title": "Nickelback live at Imola, Italy",
        "description": "",
        "date": "05-07-2020",
        "eventAddress": "Imola, Italy"
      }
    },
    {
      "type": "Feature",
      "geometry": {
        "coordinates": [
          19.937975,
          50.062325
        ],
        "type": "Point"
      },
      "properties": {
        "ID": "nickelback_event_0009",
        "title": "Nickelback live at Krakow, Poland",
        "description": "",
        "date": "13-07-2020",
        "eventAddress": "Krakow, Poland"
      }
    },
    {
      "type": "Feature",
      "geometry": {
        "coordinates": [
          16.3725042,
          48.2083537
        ],
        "type": "Point"
      },
      "properties": {
        "ID": "nickelback_event_0010",
        "title": "Nickelback live at Vienna, Austria",
        "description": "",
        "date": "07-07-2020",
        "eventAddress": "Vienna, Austria"
      }
    }
  ]
}