{
  "type": "FeatureCollection",
  "features": [
    {
      "type": "Feature",
      "properties": {
        "artist": "Fall Out Boy",
        "date_1": "14-06-2020",
        "title": "Groningen, Netherlands"
      },
      "geometry": {
        "coordinates": [
          6.569525,
          53.218415
        ],
        "type": "Point"
      }
    },
    {
      "type": "Feature",
      "properties": {
        "artist": "Fall Out Boy",
        "date_1": "26-06-2020",
        "title": "London, UK"
      },
      "geometry": {
        "coordinates": [
          -0.127647,
          51.5073
        ],
        "type": "Point"
      }
    },
    {
      "type": "Feature",
      "properties": {
        "artist": "Fall Out Boy",
        "date_1": "13-06-2020",
        "title": "Paris, France"
      },
      "geometry": {
        "coordinates": [
          2.3483915,
          48.8534951
        ],
        "type": "Point"
      }
    },
    {
      "type": "Feature",
      "properties": {
        "artist": "Fall Out Boy",
        "date_1": "21-06-2020",
        "title": "Vienna, Austria"
      },
      "geometry": {
        "coordinates": [
          16.3725042,
          48.2083537
        ],
        "type": "Point"
      }
    },
    {
      "type": "Feature",
      "properties": {
        "artist": "Fall Out Boy",
        "date_1": "19-06-2020",
        "title": "Antwerp, Belgium"
      },
      "geometry": {
        "coordinates": [
          4.3997081,
          51.2211097
        ],
        "type": "Point"
      }
    },
    {
      "type": "Feature",
      "properties": {
        "artist": "Fall Out Boy",
        "date_1": "24-06-2020",
        "title": "Glasgow, UK"
      },
      "geometry": {
        "coordinates": [
          -4.2488787,
          55.860982499999984
        ],
        "type": "Point"
      }
    }
  ]
}