{
  "type": "FeatureCollection",
  "features": [
    {
      "type": "Feature",
      "properties": {
        "artist": "Pearl Jam",
        "date_1": "29-06-2020",
        "title": "Copenhagen, Denmark"
      },
      "geometry": {
        "coordinates": [
          12.5697339,
          55.6753132
        ],
        "type": "Point"
      }
    },
    {
      "type": "Feature",
      "properties": {
        "artist": "Pearl Jam",
        "date_1": "23-06-2020",
        "title": "Frankfurt, Germany"
      },
      "geometry": {
        "coordinates": [
          8.678239,
          50.113395
        ],
        "type": "Point"
      }
    },
    {
      "type": "Feature",
      "properties": {
        "artist": "Pearl Jam",
        "date_1": "26-06-2020",
        "date_2": "27-06-2020",
        "date_3": "28-06-2020",
        "title": "Stockholm, Sweden"
      },
      "geometry": {
        "coordinates": [
          18.071765,
          59.324334
        ],
        "type": "Point"
      }
    },
    {
      "type": "Feature",
      "properties": {
        "artist": "Pearl Jam",
        "date_1": "02-07-2020",
        "title": "Werchter, Belgium"
      },
      "geometry": {
        "coordinates": [
          4.692803,
          50.97131
        ],
        "type": "Point"
      }
    },
    {
      "type": "Feature",
      "properties": {
        "artist": "Pearl Jam",
        "date_1": "25-06-2020",
        "title": "Berlin, Germany"
      },
      "geometry": {
        "coordinates": [
          13.3888599,
          52.5170365
        ],
        "type": "Point"
      }
    }
  ]
}