{
  "features": [
    {
      "type": "Feature",
      "properties": {
        "title": "Festival Pier at Penn's Landing",
        "description": "Mobb Deep at Festival Pier at Penn's Landing at 2017-06-03T12:00:00-0400",
        "date": "03-06-2017"
      },
      "geometry": {
        "coordinates": [
          -75.13719,
          39.96026
        ],
        "type": "Point"
      }
    },
    {
      "type": "Feature",
      "properties": {
        "title": "YMCA HQ",
        "description": "Mobb Deep at YMCA HQ at 2017-06-03",
        "date": "03-06-2017"
      },
      "geometry": {
        "coordinates": [
          115.84225,
          -31.93915
        ],
        "type": "Point"
      }
    },
    {
      "type": "Feature",
      "properties": {
        "title": "House of Blues - Old Location",
        "description": "Mobb Deep at House of Blues - Old Location at 2017-05-04T21:30:00-0700",
        "date": "04-05-2017"
      },
      "geometry": {
        "coordinates": [
          -117.92298,
          33.80954
        ],
        "type": "Point"
      }
    },
    {
      "type": "Feature",
      "properties": {
        "title": "PURE NIGHTCLUB",
        "description": "Mobb Deep at PURE NIGHTCLUB at 2017-04-16T21:00:00+0100",
        "date": "16-04-2017"
      },
      "geometry": {
        "coordinates": [
          -2.63289,
          53.54514
        ],
        "type": "Point"
      }
    },
    {
      "type": "Feature",
      "properties": {
        "title": "Cabaret Sauvage",
        "description": "Mobb Deep at Cabaret Sauvage at 2017-03-31T19:30:00+0200",
        "date": "31-03-2017"
      },
      "geometry": {
        "coordinates": [
          2.39052,
          48.89307
        ],
        "type": "Point"
      }
    },
    {
      "type": "Feature",
      "properties": {
        "title": "Amityville Music Hall",
        "description": "Mobb Deep at Amityville Music Hall at 2017-03-22T20:00:00-0400",
        "date": "22-03-2017"
      },
      "geometry": {
        "coordinates": [
          -73.41738,
          40.67894
        ],
        "type": "Point"
      }
    },
    {
      "type": "Feature",
      "properties": {
        "title": "Portage Theater",
        "description": "Mobb Deep at Portage Theater at 2017-03-17T20:00:00-0500",
        "date": "17-03-2017"
      },
      "geometry": {
        "coordinates": [
          -87.74903,
          41.95435
        ],
        "type": "Point"
      }
    },
    {
      "type": "Feature",
      "properties": {
        "title": "Privé Minneapolis",
        "description": "Mobb Deep at Privé Minneapolis at 2017-03-16",
        "date": "16-03-2017"
      },
      "geometry": {
        "coordinates": [
          -93.27166,
          44.98154
        ],
        "type": "Point"
      }
    },
    {
      "type": "Feature",
      "properties": {
        "title": "St. Andrew's Hall",
        "description": "Mobb Deep at St. Andrew's Hall at 2017-03-15T20:00:00-0400",
        "date": "15-03-2017"
      },
      "geometry": {
        "coordinates": [
          -83.04144,
          42.33221
        ],
        "type": "Point"
      }
    }
  ]
}